$GPGSA,A,3,17,28,24,15,,,,,,,,,7.87,4.13,6.70*03
$GPGSV,3,1,09,01,01,130,21,05$GPRMC,225737.00,A,3436.33301,S,05833.86742,W,0.205,,130619,,,A*70
$GPVTG,,T,,M,0.205,N,0.380,K,A*2F
$GPGGA,225737.00,3436.33301,S,05833.86742,W,1,04,4.13,28.8,M,13.9,M,,*6C
$GPGSA,A,3,17,28,24,15,,,,,,,,,7.88,4.13,6.71*0D
$GPGSV,3,1,09,01,01,130,21,05,02,334,24,06,01,034,,15,51,252,40*77
$GPGSV,3,2,09,17,59,077,42,24,24,235,23,28,35,136,28,30,17,080,19*7F
$GPGSV,3,3,09,51,25,296,41*4B
$GPGLL,3436.33301,S,05833.86742,W,225737.00,A,A*62
$GPRMC,225738.00,A,3436.33288,S,05833.86747,W,0.043,,130619,,,A*7A
$GPVTG,,T,,M,0.043,N,0.080,K,A*2C
$GPGGA,225738.00,3436.33288,S,05833.86747,W,1,04,4.14,28.9,M,13.9,M,,*60
$GPGSA,A,3,17,28,24,15,,,,,,,,,7.88,4.14,6.71*0A
$GPGSV,3,1,09,01,01,130,21,05$GPRMC,225739.00,A,3436.33296,S,05833.86745,W,0.094,,130619,,,A*7C
$GPVTG,,T,,M,0.094,N,0.174,K,A*2C
$GPGGA,225739.00,3436.33296,S,05833.86745,W,1,04,4.14,28.9,M,13.9,M,,*6C
$GPGSA,A,3,17,28,24,15,,,,,,,,,7.89,4.14,6.72*08
$GPGSV,3,1,09,01,01,130,21,05,02,334,25,06,01,034,,15,51,252,40*76
$GPGSV,3,2,09,17,59,077,42,24,24,235,23,28,35,136,29,30,17,080,20*74
$GPGSV,3,3,09,51,25,296,41*4B
$GPGLL,3436.33296,S,05833.86745,W,225739.00,A,A*64
$GPRMC,225740.00,A,3436.33282,S,05833.86750,W,0.120,,130619,,,A*7D
$GPVTG,,T,,M,0.120,N,0.222,K,A*22
$GPGGA,225740.00,3436.33282,S,05833.86750,W,1,04,4.15,29.0,M,13.9,M,,*6A
$GPGSA,A,3,17,28,24,15,,,,,,,,,7.90,4.15,6.72*01
$GPGSV,3,1,09,01,01,130,22,058,35,135,30,30,17,080,20*7F
$GPGSV,3,3,09,51,25,296,41*4B
$GPGLL,3436.33282,S,05833.86750,W,225740.00,A,A*6B
$GPRMC,225741.00,A,3436.33283,S,05833.86751,W,0.054,,130619,,,A*7E
$GPVTG,,T,,M,0.054,N,0.100,K,A*23
$GPGGA,225741.00,3436.33283,S,05833.86751,W,1,04,4.15,29.0,M,13.9,M,,*6B
$GPGSA,A,3,17,28,24,15,,,,,,,,,7.91,4.15,6.73*01
$GPGSV,3,1,09,01,01,130,21,05$GPRMC,225742.00,A,3436.33278,S,05833.86753,W,0.061,,130619,,,A*7D
$GPVTG,,T,,M,0.061,N,0.112,K,A*26
$GPGGA,225742.00,3436.33278,S,05833.86753,W,1,04,4.15,29.1,M,13.9,M,,*6F
$GPGSA,A,3,17,28,24,15,,,,,,,,,7.92,4.15,6.74*05
$GPGSV,3,1,09,01,01,130,21,05,02,334,26,06,01,034,,15,51,252,41*74
$GPGSV,3,2,09,17,59,077,42,24,24,235,23,28,35,135,31,30,17,079,19*72
$GPGSV,3,3,09,51,25,296,41*4B
$GPGLL,3436.33278,S,05833.86753,W,225742.00,A,A*6F
$GPRMC,225743.00,A,3436.33281,S,05833.86752,W,0.035,,130619,,,A*7A
$GPVTG,,T,,M,0.035,N,0.064,K,A*27
$GPGGA,225743.00,3436.33281,S,05833.86752,W,1,04,4.16,29.1,M,13.9,M,,*6A
$GPGSA,A,3,17,28,24,15,,,,,,,,,7.92,4.16,6.74*06
$GPGSV,3,1,09,01,01,130,21,05$GPRMC,225744.00,A,3436.33285,S,05833.86752,W,0.014,,130619,,,A*7A
$GPVTG,,T,,M,0.014,N,0.025,K,A*21
$GPGGA,225744.00,3436.33285,S,05833.86752,W,1,04,4.16,29.1,M,13.9,M,,*69
$GPGSA,A,3,17,28,24,15,,,,,,,,,7.93,4.16,6.75*06
$GPGSV,3,1,09,01,01,130,20,05,02,334,25,06,01,034,,15,51,252,41*76
$GPGSV,3,2,09,17,59,077,42,24,24,235,22,28,35,135,30,30,17,079,19*72
$GPGSV,3,3,09,51,25,296,40*4A
$GPGLL,3436.33285,S,05833.86752,W,225744.00,A,A*6A
$GPRMC,225745.00,A,3436.33285,S,05833.86753,W,0.012,,130619,,,A*7C
$GPVTG,,T,,M,0.012,N,0.022,K,A*20
$GPGGA,225745.00,3436.33285,S,05833.86753,W,1,04,4.17,29.1,M,13.9,M,,*68
$GPGSA,A,3,17,28,24,15,,,,,,,,,7.94,4.17,6.76*03
$GPGSV,3,1,09,01,01,130,19,05$GPRMC,225746.00,A,3436.33280,S,05833.86754,W,0.128,,130619,,,A*75
$GPVTG,,T,,M,0.128,N,0.238,K,A*21
$GPGGA,225746.00,3436.33280,S,05833.86754,W,1,04,4.17,29.1,M,13.9,M,,*69
$GPGSA,A,3,17,28,24,15,,,,,,,,,7.95,4.17,6.76*02
$GPGSV,3,1,09,01,01,130,19,05,02,334,25,06,01,034,,15,51,252,41*7C
$GPGSV,3,2,09,17,59,077,42,24,24,235,22,28,35,135,29,30,17,079,20*70
$GPGSV,3,3,09,51,25,296,40*4A
$GPGLL,3436.33280,S,05833.86754,W,225746.00,A,A*6B
$GPRMC,225747.00,A,3436.33280,S,05833.86755,W,0.044,,130619,,,A*7E
$GPVTG,,T,,M,0.044,N,0.081,K,A*2A
$GPGGA,225747.00,3436.33280,S,05833.86755,W,1,04,4.18,29.1,M,13.9,M,,*66
$GPGSA,A,3,17,28,24,15,,,,,,,,,7.96,4.18,6.77*0F
$GPGSV,3,1,09,01,01,130,18,05$GPRMC,225748.00,A,3436.33283,S,05833.86757,W,0.047,,130619,,,A*73
$GPVTG,,T,,M,0.047,N,0.087,K,A*2F
$GPGGA,225748.00,3436.33283,S,05833.86757,W,1,04,4.18,29.1,M,13.9,M,,*68
$GPGSA,A,3,17,28,24,15,,,,,,,,,7.96,4.18,6.78*00
$GPGSV,3,1,09,01,01,130,19,05,02,334,23,06,01,034,,15,51,252,40*7B
$GPGSV,3,2,09,17,59,077,42,24,24,235,22,28,35,135,28,30,17,079,18*7A
$GPGSV,3,3,09,51,25,296,40*4A
$GPGLL,3436.33283,S,05833.86757,W,225748.00,A,A*65
$GPRMC,225749.00,A,3436.33288,S,05833.86757,W,0.122,,130619,,,A*7B
$GPVTG,,T,,M,0.122,N,0.226,K,A*24
$GPGGA,225749.00,3436.33288,S,05833.86757,W,1,04,4.19,29.1,M,13.9,M,,*63
$GPGSA,A,3,17,28,24,15,,,,,,,,,7.97,4.19,6.78*00
$GPGSV,3,1,09,01,01,130,19,05$GPRMC,225750.00,A,3436.33279,S,05833.86761,W,0.052,,130619,,,A*7E
$GPVTG,,T,,M,0.052,N,0.097,K,A*2A
$GPGGA,225750.00,3436.33279,S,05833.86761,W,1,04,4.19,29.1,M,13.9,M,,*60
$GPGSA,A,3,17,28,24,15,,,,,,,,,7.98,4.19,6.79*0E
$GPGSV,3,1,09,01,01,130,19,05,02,334,22,06,01,034,,15,51,252,40*7A
$GPGSV,3,2,09,17,59,077,41,24,24,235,22,28,35,135,28,30,17,079,19*78
$GPGSV,3,3,09,51,25,296,40*4A
$GPGLL,3436.33279,S,05833.86761,W,225750.00,A,A*6C
$GPRMC,225751.00,A,3436.33280,S,05833.86762,W,0.011,,130619,,,A*7D
$GPVTG,,T,,M,0.011,N,0.021,K,A*20
$GPGGA,225751.00,3436.33280,S,05833.86762,W,1,04,4.19,29.1,M,13.9,M,,*64
$GPGSA,A,3,17,28,24,15,,,,,,,,,7.99,4.19,6.80*09
$GPGSV,3,1,09,01,01,130,19,05$GPRMC,225752.00,A,3436.33281,S,05833.86764,W,0.027,,130619,,,A*7C
$GPVTG,,T,,M,0.027,N,0.050,K,A*23
$GPGGA,225752.00,3436.33281,S,05833.86764,W,1,04,4.20,29.1,M,13.9,M,,*6A
$GPGSA,A,3,17,28,24,15,,,,,,,,,8.00,4.20,6.80*0C
$GPGSV,3,1,09,01,01,130,19,05,02,334,22,06,01,034,,15,51,252,40*7A
$GPGSV,3,2,09,17,59,077,41,24,24,235,21,28,35,135,27,30,17,079,19*74
$GPGSV,3,3,09,51,25,296,40*4A
$GPGLL,3436.33281,S,05833.86764,W,225752.00,A,A*6C
$GPRMC,225753.00,A,3436.33287,S,05833.86763,W,0.060,,130619,,,A*7F
$GPVTG,,T,,M,0.060,N,0.112,K,A*27
$GPGGA,225753.00,3436.33287,S,05833.86763,W,1,04,4.20,29.1,M,13.9,M,,*6A
$GPGSA,A,3,17,28,24,15,,,,,,,,,8.00,4.20,6.81*0D
$GPGSV,3,1,09,01,01,130,20,05$GPRMC,225754.00,A,3436.33246,S,05833.86776,W,0.568,,130619,,,A*7C
$GPVTG,,T,,M,0.568,N,1.051,K,A*2D
$GPGGA,225754.00,3436.33246,S,05833.86776,W,1,04,4.21,29.1,M,13.9,M,,*65
$GPGSA,A,3,17,28,24,15,,,,,,,,,8.01,4.21,6.82*0E
$GPGSV,3,1,09,01,01,130,20,05,02,334,23,06,01,034,,15,51,252,41*70
$GPGSV,3,2,09,17,59,077,41,24,24,235,20,28,35,135,25,30,17,079,19*77
$GPGSV,3,3,09,51,25,296,40*4A
$GPGLL,3436.33246,S,05833.86776,W,225754.00,A,A*62
$GPRMC,225755.00,A,3436.33235,S,05833.86782,W,0.515,,130619,,,A*78
$GPVTG,,T,,M,0.515,N,0.953,K,A*2D
$GPGGA,225755.00,3436.33235,S,05833.86782,W,1,04,4.21,29.1,M,13.9,M,,*6B
$GPGSA,A,3,17,28,24,15,,,,,,,,,8.02,4.21,6.82*0D
$GPGSV,3,1,09,01,01,130,20,05$GPRMC,225756.00,A,3436.33216,S,05833.86789,W,0.560,,130619,,,A*73
$GPVTG,,T,,M,0.560,N,1.038,K,A*2A
$GPGGA,225756.00,3436.33216,S,05833.86789,W,1,04,4.22,29.1,M,13.9,M,,*61
$GPGSA,A,3,17,28,24,15,,,,,,,,,8.03,4.22,6.83*0E
$GPGSV,3,1,09,01,01,130,19,05,02,334,22,06,01,034,,15,51,252,40*7A
$GPGSV,3,2,09,17,59,077,41,24,24,235,16,28,35,135,21,30,17,079,17*78
$GPGSV,3,3,09,51,25,296,39*44
$GPGLL,3436.33216,S,05833.86789,W,225756.00,A,A*65
$GPRMC,225757.00,A,3436.33253,S,05833.86779,W,0.062,,130619,,,A*7B
$GPVTG,,T,,M,0.062,N,0.115,K,A*22
$GPGGA,225757.00,3436.33253,S,05833.86779,W,1,04,4.22,29.1,M,13.9,M,,*6E
$GPGSA,A,3,17,28,24,15,,,,,,,,,8.04,4.22,6.84*0E
$GPGSV,3,1,09,01,01,130,19,05$GPRMC,225758.00,A,3436.33398,S,05833.86736,W,1.594,204.00,130619,,,A*
$GPVTG,204.00,T,,M,1.594,N,2.953,K,A*3F
$GPGGA,225758.00,3436.33398,S,05833.86736,W,1,04,4.23,29.0,M,13.9,M,,*6C
$GPGSA,A,3,17,28,24,15,,,,,,,,,8.04,4.23,6.84*0F
$GPGSV,3,1,09,01,01,130,19,05,02,334,21,06,01,034,,15,51,252,40*79
$GPGSV,3,2,09,17,59,077,40,24,24,235,12,28,35,135,19,30,17,079,16*77
$GPGSV,3,3,09,51,25,296,39*44
$GPGLL,3436.33398,S,05833.86736,W,225758.00,A,A*68
$GPRMC,225759.00,A,3436.33648,S,05833.86661,W,3.650,172.65,130619,,,A*6E
$GPVTG,172.65,T,,M,3.650,N,6.761,K,A*3C
$GPGGA,225759.00,3436.33648,S,05833.86661,W,1,04,4.23,28.8,M,13.9,M,,*6F
$GPGSA,A,3,17,28,24,15,,,,,,,,,8.05,4.23,6.85*0F
$GPGSV,3,1,09,01,.00,A,A*62
$GPRMC,225800.00,A,3436.33616,S,05833.86672,W,2.576,170.34,130619,,,A*64
$GPVTG,170.34,T,,M,2.576,N,4.770,K,A*3E
$GPGGA,225800.00,3436.33616,S,05833.86672,W,1,03,2.35,28.9,M,13.9,M,,*62
$GPGSA,A,2,17,28,15,,,,,,,,,,2.56,2.35,1.00*0F
$GPGSV,3,1,09,01,01$GPRMC,225801.00,A,3436.33658,S,05833.86662,W,2.415,168.72,130619,,,A*61
$GPVTG,168.72,T,,M,2.415,N,4.473,K,A*31
$GPGGA,225801.00,3436.33658,S,05833.86662,W,1,04,4.24,28.8,M,13.9,M,,*68
$GPGSA,A,3,17,28,24,15,,,,,,,,,8.07,4.24,6.86*09
$GPGSV,3,1,09,01,01,130,17,05,02,334,19,06,01,034,,15,51,252,40*7C
$GPGSV,3,2,09,17,59,077,40,24,24,235,10,28,35,135,20,30,17,079,16*7F
$GPGSV,3,3,09,51,25,296,39*44
$GPGLL,3436.33658,S,05833.86662,W,225801.00,A,A*62
$GPRMC,225802.00,A,3436.33767,S,05833.86630,W,2.824,167.59,130619,,,A*60
$GPVTG,167.59,T,,M,2.824,N,5.229,K,A*31
$GPGGA,225802.00,3436.33767,S,05833.86630,W,1,04,4.25,28.6,M,13.9,M,,*6E
$GPGSA,A,3,17,28,24,15,,,,,,,,,8.08,4.25,6.87*06
$GPGSV,3,1,09,01,.00,A,A*6B
$GPRMC,225803.00,A,3436.33970,S,05833.86572,W,3.729,167.09,130619,,,A*6A
$GPVTG,167.09,T,,M,3.729,N,6.907,K,A*33
$GPGGA,225803.00,3436.33970,S,05833.86572,W,1,03,5.69,28.6,M,13.9,M,,*6C
$GPGSA,A,2,17,24,15,,,,,,,,,,5.78,5.69,1.00*06
$GPGSV,3,1,09,01,01$GPRMC,225804.00,V,,,,,,,130619,,,N*78
$GPVTG,,,,,,,,,N*30
$GPGGA,225804.00,,,,,0,00,99.99,,,,,,*6F
$GPGSA,A,1,,,,,,,,,,,,,99.99,99.99,99.99*30
$GPGSV,3,1,09,01,01,130,17,05,02,334,17,06,01,034,,15,51,252,39*7C
$GPGSV,3,2,09,17,59,077,41,24,24,235,07,28,35,135,,30,17,079,14*78
$GPGSV,3,3,09,51,25,296,40*4A
$GPGLL,,,,,225804.00,V,N*43
$GPRMC,225805.00,V,,,,,,,130619,,,N*79
$GPVTG,,,,,,,,,N*30
$GPGGA,225805.00,,,,,0,00,99.99,,,,,,*6E
$GPGSA,A,1,,,,,,,,,,,,,99.99,99.99,99.99*30
$GPGSV,3,1,09,01,01,130,16,05,02,334,17,06,01,034,,15,51,252,39*7D
$GPGSV,3,2,09,17,59,077,41,24,24,235,07,V,N*42
$GPRMC,225806.00,V,,,,,,,130619,,,N*7A
$GPVTG,,,,,,,,,N*30
$GPGGA,225806.00,,,,,0,00,99.99,,,,,,*6D
$GPGSA,A,1,,,,,,,,,,,,,99.99,99.99,99.99*30
$GPGSV,3,1,09,01,01,130,16,05,02,334,17,06,01,034,20,15,51,252,37*71
$GPGSV,3,2,09,17,59,077,41,24,24,235,0$GPRMC,225807.00,V,,,,,,,130619,,,N*7B
$GPVTG,,,,,,,,,N*30
$GPGGA,225807.00,,,,,0,00,99.99,,,,,,*6C
$GPGSA,A,1,,,,,,,,,,,,,99.99,99.99,99.99*30
$GPGSV,3,1,09,01,01,130,17,05,02,334,17,06,01,034,19,15,51,252,37*7A
$GPGSV,3,2,09,17,59,077,40,24,24,235,07,28,35,135,22,30,17,079,11*7C
$GPGSV,3,3,09,51,25,296,40*4A
$GPGLL,,,,,225807.00,V,N*40
$GPRMC,225808.00,A,3436.33926,S,05833.86593,W,0.691,,130619,,,A*7B
$GPVTG,,T,,M,0.691,N,1.280,K,A*26
$GPGGA,225808.00,3436.33926,S,05833.86593,W,1,05,2.73,28.5,M,13.9,M,,*62
$GPGSA,A,2,51,17,28,24,15,,,,,,,,2.90,2.73,1.00*05
$GPGSV,3,1,09,01,01,130,18,05,02,334,16,06,01,034,17,15,51,252,36*7B
$GPGSV,3,2,09,17,59,077,40,24,24,235,08,28,35,135,21,30,17,079,09*79
$GPGSV,3,3,09,51,25,296,39*44
$GPGLL,3436.33926,S,05833.86593,W,225808.00,A,A*60
$GPRMC,225809.00,A,3436.33848,S,05833.86620,W,0.857,,130619,,,A*7C
$GPVTG,,T,,M,0.857,N,1.586,K,A*23
$GPGGA,225809.00,3436.33848,S,05833.86620,W,1,05,1.97,28.5,M,13.9,M,,*68
$GPGSA,A,3,51,17,28,24,15,,,,,,,,3.73,1.97,3.16*04
$GPGSV,3,1,09,01,01,130,18,$GPRMC,225810.00,A,3436.33831,S,05833.86635,W,0.687,,130619,,,A*7D
$GPVTG,,T,,M,0.687,N,1.273,K,A*2D
$GPGGA,225810.00,3436.33831,S,05833.86635,W,1,04,2.36,28.5,M,13.9,M,,*63
$GPGSA,A,2,51,17,28,15,,,,,,,,,2.56,2.36,1.00*08
$GPGSV,3,1,09,01,01,130,16,05,02,334,19,06,01,034,17,15,51,252,32*7E
$GPGSV,3,2,09,17,59,077,22,24,24,235,,28,35,135,29,30,17,079,24*72
$GPGSV,3,3,09,51,25,296,27*4B
$GPGLL,3436.33831,S,05833.86635,W,225810.00,A,A*61
$GPRMC,225811.00,A,3436.33797,S,05833.86601,W,2.326,,130619,,,A*74
$GPVTG,,T,,M,2.326,N,4.309,K,A*28
$GPGGA,225811.00,3436.33797,S,05833.86601,W,1,05,1.97,28.5,M,13.9,M,,*6F
$GPGSA,A,3,51,17,28,24,15,,,,,,,,3.72,1.97,3.16*05
$GPGSV,3,1,09,01,01,130,14,25,28,35,135,34,30,17,079,21*77
$GPGSV,3,3,09,51,25,296,28*44
$GPGLL,3436.33797,S,05833.86601,W,2264
$GPRMC,225812.00,A,3436.33766,S,05833.86587,W,1.764,,130619,,,A*75
$GPVTG,,T,,M,1.764,N,3.266,K,A*26
$GPGGA,225812.00,3436.33766,S,05833.86587,W,1,05,4.29,28.6,M,13.9,M,,*6C
$GPGSA,A,3,51,17,28,24,15,,,,,,,,8.16,4.29,6.94*03
$GPGSV,3,1,09,01,01,130,13,$GPRMC,225813.00,A,3436.33808,S,05833.86584,W,1.749,,130619,,,A*7F
$GPVTG,,T,,M,1.749,N,3.239,K,A*23
$GPGGA,225813.00,3436.33808,S,05833.86584,W,1,04,4.30,28.6,M,13.9,M,,*60
$GPGSA,A,3,17,28,24,15,,,,,,,,,8.17,4.30,6.95*0F
$GPGSV,3,1,09,01,01,130,10,05,02,334,15,06,01,034,11,15,51,252,26*77
$GPGSV,3,2,09,17,59,077,33,24,24,235,22,28,35,135,21,30,17,079,18*75
$GPGSV,3,3,09,51,25,296,*4E
$GPGLL,3436.33808,S,05833.86584,W,225813.00,A,A*61
$GPRMC,225814.00,A,3436.33848,S,05833.86597,W,1.818,,130619,,,A*75
$GPVTG,,T,,M,1.818,N,3.367,K,A*22
$GPGGA,225814.00,3436.33848,S,05833.86597,W,1,04,4.30,28.6,M,13.9,M,,*61
$GPGSA,A,3,17,28,24,15,,,,,,,,,8.18,4.30,6.95*00
$GPGSV,3,1,09,01,01,130,08,05$GPRMC,225815.00,A,3436.33870,S,05833.86599,W,1.712,,130619,,,A*74
$GPVTG,,T,,M,1.712,N,3.171,K,A*22
$GPGGA,225815.00,3436.33870,S,05833.86599,W,1,04,4.31,28.6,M,13.9,M,,*64
$GPGSA,A,3,17,28,24,15,,,,,,,,,8.18,4.31,6.96*02
$GPGSV,3,1,09,01,01,130,08,05,02,334,15,06,01,034,09,15,51,252,27*76
$GPGSV,3,2,09,17,59,077,26,24,24,235,22,28,35,135,24,30,17,079,17*7B
$GPGSV,3,3,09,51,25,296,*4E
$GPGLL,3436.33870,S,05833.86599,W,225815.00,A,A*64
$GPRMC,225816.00,A,3436.33873,S,05833.86609,W,1.462,,130619,,,A*7A
$GPVTG,,T,,M,1.462,N,2.709,K,A*2E
$GPGGA,225816.00,3436.33873,S,05833.86609,W,1,04,4.31,28.6,M,13.9,M,,*6E
$GPGSA,A,3,17,28,24,15,,,,,,,,,8.19,4.31,6.97*02
$GPGSV,3,1,09,01,01,130,08,05$GPRMC,225817.00,A,3436.33850,S,05833.86604,W,1.166,,130619,,,A*76
$GPVTG,,T,,M,1.166,N,2.159,K,A*2C
$GPGGA,225817.00,3436.33850,S,05833.86604,W,1,05,4.32,28.6,M,13.9,M,,*61
$GPGSA,A,3,51,17,28,24,15,,,,,,,,8.20,4.32,6.97*0F
$GPGSV,3,1,09,01,01,130,08,05,02,334,14,06,01,034,09,15,51,252,26*76
$GPGSV,3,2,09,17,59,077,24,24,24,235,34,28,35,135,24,30,17,079,15*7C
$GPGSV,3,3,09,51,25,296,30*4D
$GPGLL,3436.33850,S,05833.86604,W,225817.00,A,A*63
$GPRMC,225818.00,A,3436.33853,S,05833.86606,W,1.061,,130619,,,A*7E
$GPVTG,,T,,M,1.061,N,1.965,K,A*2E
$GPGGA,225818.00,3436.33853,S,05833.86606,W,1,04,4.32,28.6,M,13.9,M,,*6E
$GPGSA,A,3,17,28,24,15,,,,,,,,,8.21,4.32,6.98*05
$GPGSV,3,1,09,01,01,130,07,05$GPRMC,225819.00,A,3436.33822,S,05833.86605,W,0.675,,130619,,,A*78
$GPVTG,,T,,M,0.675,N,1.251,K,A*20
$GPGGA,225819.00,3436.33822,S,05833.86605,W,1,04,4.33,28.7,M,13.9,M,,*6A
$GPGSA,A,3,17,28,24,15,,,,,,,,,8.22,4.33,6.99*06
$GPGSV,3,1,09,01,01,130,07,05,02,334,09,06,01,034,08,15,51,252,26*74
$GPGSV,3,2,09,17,59,077,25,24,24,235,26,28,35,135,20,30,17,079,13*7C
$GPGSV,3,3,09,51,25,296,*4E
$GPGLL,3436.33822,S,05833.86605,W,225819.00,A,A*69
$GPRMC,225820.00,A,3436.33819,S,05833.86598,W,0.616,,130619,,,A*78
$GPVTG,,T,,M,0.616,N,1.141,K,A*27
$GPGGA,225820.00,3436.33819,S,05833.86598,W,1,04,4.33,28.7,M,13.9,M,,*6F
$GPGSA,A,3,17,28,24,15,,,,,,,,,8.23,4.33,7.00*06
$GPGSV,3,1,09,01,01,130,08,05$GPRMC,225821.00,A,3436.33769,S,05833.86633,W,0.308,,130619,,,A*79
$GPVTG,,T,,M,0.308,N,0.569,K,A*22
$GPGGA,225821.00,3436.33769,S,05833.86633,W,1,04,4.34,28.7,M,13.9,M,,*63
$GPGSA,A,3,17,28,24,15,,,,,,,,,8.24,4.34,7.00*06
$GPGSV,3,1,09,01,01,130,08,05,02,334,08,06,01,034,20,15,51,252,22*74
$GPGSV,3,2,09,17,59,077,14,24,24,235,26,28,35,135,21,30,17,079,12*7E
$GPGSV,3,3,09,51,25,296,*4E
$GPGLL,3436.33769,S,05833.86633,W,225821.00,A,A*67
$GPRMC,225822.00,A,3436.33780,S,05833.86621,W,0.246,,130619,,,A*75
$GPVTG,,T,,M,0.246,N,0.455,K,A*27
$GPGGA,225822.00,3436.33780,S,05833.86621,W,1,04,4.34,28.7,M,13.9,M,,*64
$GPGSA,A,3,17,28,24,15,,,,,,,,,8.24,4.34,7.01*07
$GPGSV,3,1,09,01,01,130,,05,0$GPRMC,225823.00,A,3436.33804,S,05833.86600,W,0.448,,130619,,,A*7C
$GPVTG,,T,,M,0.448,N,0.830,K,A*20
$GPGGA,225823.00,3436.33804,S,05833.86600,W,1,04,4.34,28.7,M,13.9,M,,*65
$GPGSA,A,3,17,28,24,15,,,,,,,,,8.25,4.34,7.02*05
$GPGSV,3,1,09,01,01,130,,05,02,334,12,06,01,034,,15,51,252,22*75
$GPGSV,3,2,09,17,59,077,30,24,24,235,24,28,35,135,24,30,17,079,16*7B
$GPGSV,3,3,09,51,25,296,*4E
$GPGLL,3436.33804,S,05833.86600,W,225823.00,A,A*61
$GPRMC,225824.00,A,3436.33798,S,05833.86612,W,0.443,,130619,,,A*79
$GPVTG,,T,,M,0.443,N,0.821,K,A*2B
$GPGGA,225824.00,3436.33798,S,05833.86612,W,1,04,4.35,28.7,M,13.9,M,,*6A
$GPGSA,A,3,17,28,24,15,,,,,,,,,8.26,4.35,7.02*07
$GPGSV,3,1,09,01,01,130,,05,0$GPRMC,225825.00,A,3436.33769,S,05833.86599,W,0.180,,130619,,,A*7C
$GPVTG,,T,,M,0.180,N,0.333,K,A*29
$GPGGA,225825.00,3436.33769,S,05833.86599,W,1,04,4.35,28.7,M,13.9,M,,*65
$GPGSA,A,3,17,28,24,15,,,,,,,,,8.27,4.35,7.03*07
$GPGSV,3,1,09,01,01,130,,05,02,334,12,06,01,034,,15,51,252,17*73
$GPGSV,3,2,09,17,59,077,28,24,24,235,23,28,35,135,26,30,17,079,15*74
$GPGSV,3,3,09,51,25,296,*4E
$GPGLL,3436.33769,S,05833.86599,W,225825.00,A,A*60
$GPRMC,225826.00,A,3436.33730,S,05833.86598,W,0.144,,130619,,,A*7A
$GPVTG,,T,,M,0.144,N,0.268,K,A*2E
$GPGGA,225826.00,3436.33730,S,05833.86598,W,1,05,4.36,28.7,M,13.9,M,,*69
$GPGSA,A,3,51,17,28,24,15,,,,,,,,8.28,4.36,7.04*08
$GPGSV,3,1,09,01,01,130,,058,35,135,23,30,17,079,17*78
$GPGSV,3,3,09,51,25,296,28*44
$GPGLL,3436.33730,S,05833.86598,W,225826.00,A,A*6E
$GPRMC,225827.00,A,3436.33420,S,05833.86759,W,2.966,269.45,130619,,,A*6E
$GPVTG,269.45,T,,M,2.966,N,5.494,K,A*36
$GPGGA,225827.00,3436.33420,S,05833.86759,W,1,05,1.59,28.6,M,13.9,M,,*68
$GPGSA,A,3,51,17,28,24,15,,,,,,,,3.41,1.59,3.02*02
$GPGSV,3,1,09,0$GPRMC,225828.00,A,3436.33404,S,05833.86713,W,2.080,,130619,,,A*7A
$GPVTG,,T,,M,2.080,N,3.853,K,A*24
$GPGGA,225828.00,3436.33404,S,05833.86713,W,1,05,4.37,28.6,M,13.9,M,,*62
$GPGSA,A,3,51,17,28,24,15,,,,,,,,8.30,4.37,7.05*01
$GPGSV,3,1,09,01,01,130,,05,02,335,,06,01,034,,15,51,252,19*7F
$GPGSV,3,2,09,17,59,077,34,24,24,235,25,28,35,135,30,30,17,079,18*75
$GPGSV,3,3,09,51,25,296,28*44
$GPGLL,3436.33404,S,05833.86713,W,225828.00,A,A*65
$GPRMC,225829.00,A,3436.33421,S,05833.86738,W,1.400,,130619,,,A*7A
$GPVTG,,T,,M,1.400,N,2.592,K,A*2A
$GPGGA,225829.00,3436.33421,S,05833.86738,W,1,04,4.37,28.6,M,13.9,M,,*6C
$GPGSA,A,3,17,28,24,15,,,,,,,,,8.31,4.37,7.06*07
$GPGSV,3,1,09,01,01,130,,05,0$GPRMC,225830.00,A,3436.33380,S,05833.86745,W,1.341,,130619,,,A*76
$GPVTG,,T,,M,1.341,N,2.484,K,A*2E
$GPGGA,225830.00,3436.33380,S,05833.86745,W,1,04,4.38,28.6,M,13.9,M,,*6D
$GPGSA,A,3,17,28,24,15,,,,,,,,,8.31,4.38,7.07*09
$GPGSV,3,1,09,01,01,130,,05,02,335,,06,01,035,,15,51,252,22*76
$GPGSV,3,2,09,17,59,077,26,24,24,235,25,28,35,135,21,30,17,079,21*7C
$GPGSV,3,3,09,51,25,296,*4E
$GPGLL,3436.33380,S,05833.86745,W,225830.00,A,A*64
$GPRMC,225831.00,A,3436.33342,S,05833.86744,W,1.295,,130619,,,A*70
$GPVTG,,T,,M,1.295,N,2.399,K,A*2D
$GPGGA,225831.00,3436.33342,S,05833.86744,W,1,04,4.38,28.6,M,13.9,M,,*63
$GPGSA,A,3,17,28,24,15,,,,,,,,,8.32,4.38,7.08*05
$GPGSV,3,1,09,01,01,130,,05,035,135,21,30,17,079,19*76
$GPGSV,3,3,09,51,25,296,*4E
$GPGLL,3436.33342,S,05833.86744,W,225831.00,A,A*6A
$GPRMC,225832.00,A,3436.33300,S,05833.86742,W,1.278,,130619,,,A*70
$GPVTG,,T,,M,1.278,N,2.366,K,A*2E
$GPGGA,225832.00,3436.33300,S,05833.86742,W,1,05,4.39,28.6,M,13.9,M,,*60
$GPGSA,A,3,51,17,28,24,15,,,,,,,,8.33,4.39,7.08*01
$GPGSV,3,1,09,01,01,130,,05$GPRMC,225833.00,A,3436.33482,S,05833.86628,W,1.153,,130619,,,A*7B
$GPVTG,,T,,M,1.153,N,2.136,K,A*23
$GPGGA,225833.00,3436.33482,S,05833.86628,W,1,05,1.59,28.6,M,13.9,M,,*62
$GPGSA,A,3,51,17,28,24,15,,,,,,,,3.41,1.59,3.01*01
$GPGSV,3,1,09,01,01,130,,05,02,335,15,06,01,035,,15,51,252,23*73
$GPGSV,3,2,09,17,59,077,28,24,24,235,25,28,35,135,22,30,17,079,20*70
$GPGSV,3,3,09,51,25,296,28*44
$GPGLL,3436.33482,S,05833.86628,W,225833.00,A,A*68
$GPRMC,225834.00,A,3436.33998,S,05833.86384,W,5.959,171.95,130619,,,A*6A
$GPVTG,171.95,T,,M,5.959,N,11.037,K,A*02
$GPGGA,225834.00,3436.33998,S,05833.86384,W,1,05,1.59,28.8,M,13.9,M,,*6E
$GPGSA,A,3,51,17,28,24,15,,,,,,,,3.41,1.59,3.01*01
$GPGSV,3,1,09,4.00,A,A*6A
$GPRMC,225835.00,A,3436.34069,S,05833.86333,W,5.428,162.77,130619,,,A*62
$GPVTG,162.77,T,,M,5.428,N,10.053,K,A*04
$GPGGA,225835.00,3436.34069,S,05833.86333,W,1,05,4.40,28.9,M,13.9,M,,*6F
$GPGSA,A,3,51,17,28,24,15,,,,,,,,8.36,4.40,7.10*03
$GPGSV,3,1,09,$GPRMC,225836.00,A,3436.34108,S,05833.86298,W,4.824,158.79,130619,,,A*61
$GPVTG,158.79,T,,M,4.824,N,8.935,K,A*32
$GPGGA,225836.00,3436.34108,S,05833.86298,W,1,05,4.41,28.9,M,13.9,M,,*6B
$GPGSA,A,3,51,17,28,24,15,,,,,,,,8.37,4.41,7.11*02
$GPGSV,3,1,09,01,01,130,,05,02,335,19,06,01,035,,15,51,252,23*7F
$GPGSV,3,2,09,17,59,077,32,24,24,235,30,28,35,135,23,30,17,079,30*7F
$GPGSV,3,3,09,51,25,296,30*4D
$GPGLL,3436.34108,S,05833.86298,W,225836.00,A,A*62
$GPRMC,225837.00,A,3436.34274,S,05833.86199,W,6.097,155.00,130619,,,A*6B
$GPVTG,155.00,T,,M,6.097,N,11.291,K,A*0E
$GPGGA,225837.00,3436.34274,S,05833.86199,W,1,05,1.59,29.1,M,13.9,M,,*65
$GPGSA,A,3,51,17,28,24,15,,,,,,,,3.41,1.59,3.01*01
$GPGSV,3,1,09,7.00,A,A*69
$GPRMC,225838.00,A,3436.34659,S,05833.86032,W,8.931,154.78,130619,,,A*6A
$GPVTG,154.78,T,,M,8.931,N,16.539,K,A*09
$GPGGA,225838.00,3436.34659,S,05833.86032,W,1,05,1.59,29.4,M,13.9,M,,*64
$GPGSA,A,3,51,17,28,24,15,,,,,,,,3.41,1.59,3.01*01
$GPGSV,3,1,09,$GPRMC,225839.00,A,3436.34484,S,05833.86137,W,5.062,157.76,130619,,,A*62
$GPVTG,157.76,T,,M,5.062,N,9.374,K,A*37
$GPGGA,225839.00,3436.34484,S,05833.86137,W,1,05,1.59,29.4,M,13.9,M,,*63
$GPGSA,A,3,51,17,28,24,15,,,,,,,,3.41,1.59,3.01*01
$GPGSV,3,1,09,01,01,130,,05,02,335,17,06,01,035,,15,52,253,26*76
$GPGSV,3,2,09,17,59,077,26,24,24,235,23,28,35,135,22,30,17,079,32*7B
$GPGSV,3,3,09,51,25,296,28*44
$GPGLL,3436.34484,S,05833.86137,W,225839.00,A,A*6A
$GPRMC,225840.00,A,3436.34505,S,05833.86160,W,4.317,162.34,130619,,,A*66
$GPVTG,162.34,T,,M,4.317,N,7.995,K,A*3C
$GPGGA,225840.00,3436.34505,S,05833.86160,W,1,04,4.43,29.5,M,13.9,M,,*69
$GPGSA,A,3,17,28,24,15,,,,,,,,,8.40,4.43,7.14*01
$GPGSV,3,1,09,01,$GPRMC,225841.00,A,3436.34465,S,05833.86264,W,3.498,168.58,130619,,,A*60
$GPVTG,168.58,T,,M,3.498,N,6.478,K,A*34
$GPGGA,225841.00,3436.34465,S,05833.86264,W,1,04,4.43,29.7,M,13.9,M,,*6A
$GPGSA,A,3,17,28,24,15,,,,,,,,,8.41,4.43,7.15*01
$GPGSV,3,1,09,01,01,130,,05,02,335,18,06,01,035,,15,52,253,35*7B
$GPGSV,3,2,09,17,59,078,25,24,24,235,29,28,35,135,24,30,17,079,29*71
$GPGSV,3,3,09,51,25,296,*4E
$GPGLL,3436.34465,S,05833.86264,W,225841.00,A,A*6F
$GPRMC,225842.00,A,3436.34217,S,05833.86376,W,0.890,,130619,,,A*79
$GPVTG,,T,,M,0.890,N,1.648,K,A*29
$GPGGA,225842.00,3436.34217,S,05833.86376,W,1,05,1.59,29.6,M,13.9,M,,*66
$GPGSA,A,3,51,17,28,24,15,,,,,,,,3.40,1.59,3.01*00
$GPGSV,3,1,09,01,01,130,,05$GPRMC,225843.00,A,3436.34179,S,05833.86411,W,0.628,,130619,,,A*78
$GPVTG,,T,,M,0.628,N,1.163,K,A*2A
$GPGGA,225843.00,3436.34179,S,05833.86411,W,1,05,1.59,29.7,M,13.9,M,,*6B
$GPGSA,A,3,51,17,28,24,15,,,,,,,,3.40,1.59,3.01*00
$GPGSV,3,1,09,01,01,130,,05,02,335,20,06,01,035,,15,52,253,23*77
$GPGSV,3,2,09,17,59,078,22,24,24,235,17,28,35,135,22,30,17,079,10*77
$GPGSV,3,3,09,51,25,296,28*44
$GPGLL,3436.34179,S,05833.86411,W,225843.00,A,A*61
$GPRMC,225844.00,A,3436.34146,S,05833.86445,W,0.469,,130619,,,A*75
$GPVTG,,T,,M,0.469,N,0.868,K,A*2E
$GPGGA,225844.00,3436.34146,S,05833.86445,W,1,05,1.59,29.7,M,13.9,M,,*61
$GPGSA,A,3,51,17,28,24,15,,,,,,,,3.40,1.59,3.01*00
$GPGSV,3,1,09,01,01,130,,058,35,135,22,30,17,079,14*70
$GPGSV,3,3,09,51,25,296,29*45
$GPGLL,3$GPRMC,225845.00,A,3436.34112,S,05833.86490,W,0.464,,130619,,,A*70
$GPVTG,,T,,M,0.464,N,0.860,K,A*2B
$GPGGA,225845.00,3436.34112,S,05833.86490,W,1,05,1.59,29.8,M,13.9,M,,*66
$GPGSA,A,3,51,17,28,24,15,,,,,,,,3.40,1.59,3.01*00
$GPGSV,3,1,09,01,01,130,,05,02,335,17,06,01,035,,15,52,253,22*72
$GPGSV,3,2,09,17,59,078,19,24,24,235,17,28,35,135,20,30,17,079,16*7B
$GPGSV,3,3,09,51,25,296,28*44
$GPGLL,3436.34112,S,05833.86490,W,225845.00,A,A*63
$GPRMC,225846.00,A,3436.34088,S,05833.86616,W,1.503,,130619,,,A*7C
$GPVTG,,T,,M,1.503,N,2.783,K,A*2A
$GPGGA,225846.00,3436.34088,S,05833.86616,W,1,05,1.59,29.8,M,13.9,M,,*6B
$GPGSA,A,3,51,17,28,24,15,,,,,,,,3.40,1.59,3.01*00
$GPGSV,3,1,09,01,01,130,,05$GPRMC,225847.00,A,3436.34088,S,05833.86664,W,1.233,,130619,,,A*7C
$GPVTG,,T,,M,1.233,N,2.284,K,A*2C
$GPGGA,225847.00,3436.34088,S,05833.86664,W,1,05,1.59,29.9,M,13.9,M,,*6E
$GPGSA,A,3,51,17,28,24,15,,,,,,,,3.40,1.59,3.01*00
$GPGSV,3,1,09,01,01,130,,05,02,335,13,06,01,035,,15,52,253,23*77
$GPGSV,3,2,09,17,59,078,17,24,24,235,28,28,35,135,17,30,17,079,22*7A
$GPGSV,3,3,09,51,25,296,35*48
$GPGLL,3436.34088,S,05833.86664,W,225847.00,A,A*6A
$GPRMC,225848.00,A,3436.34066,S,05833.86731,W,1.184,,130619,,,A*7D
$GPVTG,,T,,M,1.184,N,2.192,K,A*27
$GPGGA,225848.00,3436.34066,S,05833.86731,W,1,05,1.59,30.0,M,13.9,M,,*61
$GPGSA,A,3,51,17,28,24,15,,,,,,,,3.40,1.59,3.01*00
$GPGSV,3,1,09,01,01,130,,05$GPRMC,225849.00,A,3436.34042,S,05833.86836,W,1.376,,130619,,,A*7D
$GPVTG,,T,,M,1.376,N,2.548,K,A*2B
$GPGGA,225849.00,3436.34042,S,05833.86836,W,1,05,1.59,30.2,M,13.9,M,,*6C
$GPGSA,A,3,51,17,28,24,15,,,,,,,,3.40,1.59,3.01*00
$GPGSV,3,1,09,01,01,130,,05,02,335,15,06,01,035,,15,52,253,34*77
$GPGSV,3,2,09,17,59,078,12,24,24,235,27,28,35,135,19,30,17,079,17*78
$GPGSV,3,3,09,51,25,296,28*44
$GPGLL,3436.34042,S,05833.86836,W,225849.00,A,A*6B
$GPRMC,225850.00,A,3436.34059,S,05833.86869,W,1.205,,130619,,,A*70
$GPVTG,,T,,M,1.205,N,2.232,K,A*24
$GPGGA,225850.00,3436.34059,S,05833.86869,W,1,05,1.59,30.4,M,13.9,M,,*62
$GPGSA,A,3,51,17,28,24,15,,,,,,,,3.40,1.59,3.01*00
$GPGSV,3,1,09,01,01,130,,05$GPRMC,225851.00,A,3436.34105,S,05833.87000,W,2.047,,130619,,,A*78
$GPVTG,,T,,M,2.047,N,3.791,K,A*2E
$GPGGA,225851.00,3436.34105,S,05833.87000,W,1,05,4.49,30.5,M,13.9,M,,*68
$GPGSA,A,3,51,17,28,24,15,,,,,,,,8.50,4.49,7.23*0A
$GPGSV,3,1,09,01,01,130,,05,02,335,,06,01,035,,15,52,253,33*74
$GPGSV,3,2,09,17,59,078,15,24,24,235,24,28,35,135,19,30,17,079,11*7A
$GPGSV,3,3,09,51,25,296,28*44
$GPGLL,3436.34105,S,05833.87000,W,225851.00,A,A*6C
$GPRMC,225852.00,A,3436.34098,S,05833.86999,W,1.506,,130619,,,A*75
$GPVTG,,T,,M,1.506,N,2.789,K,A*25
$GPGGA,225852.00,3436.34098,S,05833.86999,W,1,03,4.04,29.9,M,13.9,M,,*6D
$GPGSA,A,2,28,24,15,,,,,,,,,,4.16,4.04,1.00*09
$GPGSV,3,1,09,01,01,130,,05,02,$GPRMC,225853.00,A,3436.34099,S,05833.87007,W,1.223,,130619,,,A*7A
$GPVTG,,T,,M,1.223,N,2.265,K,A*22
$GPGGA,225853.00,3436.34099,S,05833.87007,W,1,05,4.04,29.9,M,13.9,M,,*64
$GPGSA,A,2,51,17,28,24,15,,,,,,,,4.16,4.04,1.00*0B
$GPGSV,3,1,09,01,01,130,,05,02,335,,06,01,035,,15,52,253,32*75
$GPGSV,3,2,09,17,59,078,17,24,24,235,24,28,35,135,21,30,17,079,08*7B
$GPGSV,3,3,09,51,25,296,27*4B
$GPGLL,3436.34099,S,05833.87007,W,225853.00,A,A*6D
$GPRMC,225854.00,A,3436.34089,S,05833.87056,W,1.180,,130619,,,A*72
$GPVTG,,T,,M,1.180,N,2.186,K,A*26
$GPGGA,225854.00,3436.34089,S,05833.87056,W,1,04,4.04,30.0,M,13.9,M,,*66
$GPGSA,A,2,17,28,24,15,,,,,,,,,4.16,4.04,1.00*0F
$GPGSV,3,1,09,01,01,130,,05,0$GPRMC,225855.00,A,3436.34039,S,05833.87073,W,0.874,,130619,,,A*7C
$GPVTG,,T,,M,0.874,N,1.618,K,A*26
$GPGGA,225855.00,3436.34039,S,05833.87073,W,1,04,4.04,30.1,M,13.9,M,,*6A
$GPGSA,A,2,17,28,24,15,,,,,,,,,4.16,4.04,1.00*0F
$GPGSV,3,1,09,01,01,130,,05,02,335,,06,01,035,,15,52,253,32*75
$GPGSV,3,2,09,17,59,078,12,24,24,235,20,28,35,135,20,30,17,079,08*7B
$GPGSV,3,3,09,51,25,296,*4E
$GPGLL,3436.34039,S,05833.87073,W,225855.00,A,A*62
$GPRMC,225856.00,A,3436.34051,S,05833.87097,W,0.899,,130619,,,A*78
$GPVTG,,T,,M,0.899,N,1.666,K,A*2C
$GPGGA,225856.00,3436.34051,S,05833.87097,W,1,04,4.04,30.2,M,13.9,M,,*6E
$GPGSA,A,2,17,28,24,15,,,,,,,,,4.16,4.04,1.00*0F
$GPGSV,3,1,09,01,01,130,,05,0$GPRMC,225857.00,A,3436.34007,S,05833.87163,W,0.883,,130619,,,A*7B
$GPVTG,,T,,M,0.883,N,1.636,K,A*22
$GPGGA,225857.00,3436.34007,S,05833.87163,W,1,04,4.03,30.2,M,13.9,M,,*61
$GPGSA,A,2,17,28,24,15,,,,,,,,,4.16,4.03,1.00*08
$GPGSV,3,1,09,01,01,130,,05,02,335,,06,01,035,,15,52,253,36*71
$GPGSV,3,2,09,17,59,078,11,24,24,235,20,28,35,135,20,30,17,079,07*77
$GPGSV,3,3,09,51,25,296,*4E
$GPGLL,3436.34007,S,05833.87163,W,225857.00,A,A*6D
$GPRMC,225858.00,A,3436.34228,S,05833.87473,W,3.366,,130619,,,A*7C
$GPVTG,,T,,M,3.366,N,6.234,K,A*20
$GPGGA,225858.00,3436.34228,S,05833.87473,W,1,04,4.52,30.3,M,13.9,M,,*60
$GPGSA,A,3,17,28,24,15,,,,,,,,,8.57,4.52,7.28*08
$GPGSV,3,1,09,01,01,130,,05,0$GPRMC,225859.00,A,3436.34537,S,05833.87854,W,5.795,208.01,130619,,,A*
$GPVTG,208.01,T,,M,5.795,N,10.733,K,A*0E
$GPGGA,225859.00,3436.34537,S,05833.87854,W,1,04,4.53,30.3,M,13.9,M,,*60
$GPGSA,A,3,17,28,24,15,,,,,,,,,8.58,4.53,7.29*07
$GPGSV,3,1,09,01,01,130,,05,02,335,13,06,01,035,,15,52,253,31*74
$GPGSV,3,2,09,17,59,078,11,24,24,235,18,28,35,135,20,30,17,079,07*7C
$GPGSV,3,3,09,51,25,296,*4E
$GPGLL,3436.34537,S,05833.87854,W,225859.00,A,A*68
$GPRMC,225900.00,A,3436.34932,S,05833.88093,W,6.923,218.25,130619,,,A*69
$GPVTG,218.25,T,,M,6.923,N,12.820,K,A*06
$GPGGA,225900.00,3436.34932,S,05833.88093,W,1,04,4.53,30.3,M,13.9,M,,*68
$GPGSA,A,3,17,28,24,15,,,,,,,,,8.59,4.53,7.30*0E
$GPGSV,3,1,09,01,A,A*60
$GPRMC,225901.00,A,3436.35353,S,05833.88475,W,8.822,221.60,130619,,,A*6D
$GPVTG,221.60,T,,M,8.822,N,16.337,K,A*0A
$GPGGA,225901.00,3436.35353,S,05833.88475,W,1,05,4.54,30.3,M,13.9,M,,*6F
$GPGSA,A,3,51,17,28,24,15,,,,,,,,8.60,4.54,7.30*07
$GPGSV,3,1,09,$GPRMC,225902.00,A,3436.36297,S,05833.89022,W,13.231,217.12,130619,,,A*51
$GPVTG,217.12,T,,M,13.231,N,24.505,K,A*3E
$GPGGA,225902.00,3436.36297,S,05833.89022,W,1,05,1.59,30.3,M,13.9,M,,*69
$GPGSA,A,3,51,17,28,24,15,,,,,,,,3.40,1.59,3.00*01
$GPGSV,3,1,09,01,01,130,,05,02,335,,06,01,035,,15,52,253,34*73
$GPGSV,3,2,09,17,59,078,07,24,24,235,17,28,35,135,18,30,17,079,07*7F
$GPGSV,3,3,09,51,25,296,27*4B
$GPGLL,3436.36297,S,05833.89022,W,225902.00,A,A*6F
$GPRMC,225903.00,A,3436.37069,S,05833.89575,W,15.909,215.84,130619,,,A*5E
$GPVTG,215.84,T,,M,15.909,N,29.463,K,A*39
$GPGGA,225903.00,3436.37069,S,05833.89575,W,1,04,2.38,30.3,M,13.9,M,,*68
$GPGSA,A,2,17,28,24,15,,,,,,,,,2.59,2.38,1.00*0B
$GPGSV,3,1,09,$GPRMC,225904.00,V,,,,,,,130619,,,N*79
$GPVTG,,,,,,,,,N*30
$GPGGA,225904.00,,,,,0,00,99.99,,,,,,*6E
$GPGSA,A,1,,,,,,,,,,,,,99.99,99.99,99.99*30
$GPGSV,3,1,09,01,01,130,,05,02,335,,06,01,035,,15,52,253,34*73
$GPGSV,3,2,09,17,59,078,07,24,24,235,17,28,35,135,18,30,17,079,07*7F
$GPGSV,3,3,09,51,25,296,*4E
$GPGLL,,,,,225904.00,V,N*42
$GPRMC,225905.00,V,,,,,,,130619,,,N*78
$GPVTG,,,,,,,,,N*30
$GPGGA,225905.00,,,,,0,00,99.99,,,,,,*6F
$GPGSA,A,1,,,,,,,,,,,,,99.99,99.99,99.99*30
$GPGSV,3,1,09,01,01,130,,05,02,335,,06,01,035,,15,52,253,34*73
$GPGSV,3,2,09,17,59,078,06,24,24,235,18,28,343
$GPRMC,225906.00,V,,,,,,,130619,,,N*7B
$GPVTG,,,,,,,,,N*30
$GPGGA,225906.00,,,,,0,00,99.99,,,,,,*6C
$GPGSA,A,1,,,,,,,,,,,,,99.99,99.99,99.99*30
$GPGSV,3,1,09,01,01,130,,05,02,335,,06,01,035,,15,52,253,33*74
$GPGSV,3,2,09,17,59,078,06,24,24,235,18,28,3$GPRMC,225907.00,V,,,,,,,130619,,,N*7A
$GPVTG,,,,,,,,,N*30
$GPGGA,225907.00,,,,,0,00,99.99,,,,,,*6D
$GPGSA,A,1,,,,,,,,,,,,,99.99,99.99,99.99*30
$GPGSV,3,1,09,01,01,130,,05,02,335,,06,01,035,,15,52,253,29*7F
$GPGSV,3,2,09,17,59,078,,24,24,235,18,28,35,135,18,30,17,079,07*77
$GPGSV,3,3,09,51,25,296,*4E
$GPGLL,,,,,225907.00,V,N*41
$GPRMC,225908.00,V,,,,,,,130619,,,N*75
$GPVTG,,,,,,,,,N*30
$GPGGA,225908.00,,,,,0,00,99.99,,,,,,*62
$GPGSA,A,1,,,,,,,,,,,,,99.99,99.99,99.99*30
$GPGSV,3,1,09,01,01,130,,05,02,335,,06,01,035,,15,52,253,29*7F
$GPGSV,3,2,09,17,59,078,17,24,24,235,18,28,3$GPRMC,225909.00,V,,,,,,,130619,,,N*74
$GPVTG,,,,,,,,,N*30
$GPGGA,225909.00,,,,,0,00,99.99,,,,,,*63
$GPGSA,A,1,,,,,,,,,,,,,99.99,99.99,99.99*30
$GPGSV,3,1,09,01,01,130,,05,02,335,,06,01,035,,15,52,253,28*7E
$GPGSV,3,2,09,17,59,078,15,24,24,235,17,28,35,135,12,30,17,079,08*79
$GPGSV,3,3,09,51,25,296,*4E
$GPGLL,,,,,225909.00,V,N*4F
$GPRMC,225910.00,V,,,,,,,130619,,,N*7C
$GPVTG,,,,,,,,,N*30
$GPGGA,225910.00,,,,,0,00,99.99,,,,,,*6B
$GPGSA,A,1,,,,,,,,,,,,,99.99,99.99,99.99*30
$GPGSV,3,1,09,01,01,130,,05,02,335,,06,01,035,,15,52,253,28*7E
$GPGSV,3,2,09,17,59,078,13,24,24,235,17,28,3$GPRMC,225911.00,V,,,,,,,130619,,,N*7D
$GPVTG,,,,,,,,,N*30
$GPGGA,225911.00,,,,,0,00,99.99,,,,,,*6A
$GPGSA,A,1,,,,,,,,,,,,,99.99,99.99,99.99*30
$GPGSV,3,1,09,01,01,130,,05,02,335,,06,01,035,,15,52,253,27*71
$GPGSV,3,2,09,17,59,078,12,24,24,235,16,28,35,135,08,30,17,079,08*74
$GPGSV,3,3,09,51,25,296,*4E
$GPGLL,,,,,225911.00,V,N*46
$GPRMC,225912.00,V,,,,,,,130619,,,N*7E
$GPVTG,,,,,,,,,N*30
$GPGGA,225912.00,,,,,0,00,99.99,,,,,,*69
$GPGSA,A,1,,,,,,,,,,,,,99.99,99.99,99.99*30
$GPGSV,3,1,09,01,01,130,,05,02,335,,06,01,035,,15,52,253,25*73
$GPGSV,3,2,09,17,59,078,12,24,24,235,16,28,3$GPRMC,225913.00,A,3436.39245,S,05833.91594,W,11.443,21
$GPVTG,214.81,T,,M,11.443,N,21.193,K,A*38
$GPGGA,225913.00,3436.39245,S,05833.91594,W,1,04,5.39,30.4,M,13.9,M,,*6C
$GPGSA,A,2,17,28,24,15,,,,,,,,,5.49,5.39,1.00*0B
$GPGSV,3,1,09,01,01,130,,05,02,335,,06,01,035,,15,52,253,31*76
$GPGSV,3,2,09,17,59,078,12,24,24,235,17,28,35,135,18,30,17,079,08*74
$GPGSV,3,3,09,51,25,296,*4E
$GPGLL,3436.39245,S,05833.91594,W,225913.00,A,A*6E
$GPRMC,225914.00,A,3436.38681,S,05833.91498,W,9.618,215.77,130619,,,A*62
$GPVTG,215.77,T,,M,9.618,N,17.813,K,A*01
$GPGGA,225914.00,3436.38681,S,05833.91498,W,1,04,5.39,30.4,M,13.9,M,,*6B
$GPGSA,A,2,17,28,24,15,,,,,,,,,5.48,5.39,1.00*0A
$GPGSV,3,1,09,01$GPRMC,225915.00,A,3436.38023,S,05833.91531,W,8.240,220.13,130619,,,A*63
$GPVTG,220.13,T,,M,8.240,N,15.260,K,A*01
$GPGGA,225915.00,3436.38023,S,05833.91531,W,1,04,5.39,30.4,M,13.9,M,,*66
$GPGSA,A,2,17,28,24,15,,,,,,,,,5.48,5.39,1.00*0A
$GPGSV,3,1,09,01,01,130,,05,02,335,,06,01,035,,15,52,253,33*74
$GPGSV,3,2,09,17,59,078,09,24,24,235,20,28,35,135,16,30,17,079,07*7B
$GPGSV,3,3,09,51,25,296,*4E
$GPGLL,3436.38023,S,05833.91531,W,225915.00,A,A*64
$GPRMC,225916.00,A,3436.37504,S,05833.91511,W,7.122,,130619,,,A*79
$GPVTG,,T,,M,7.122,N,13.190,K,A*1F
$GPGGA,225916.00,3436.37504,S,05833.91511,W,1,04,5.38,30.4,M,13.9,M,,*69
$GPGSA,A,2,17,28,24,15,,,,,,,,,5.47,5.38,1.00*04
$GPGSV,3,1,09,01,01,130,,05,$GPRMC,225917.00,A,3436.36826,S,05833.91571,W,6.176,,130619,,,A*72
$GPVTG,,T,,M,6.176,N,11.438,K,A*1A
$GPGGA,225917.00,3436.36826,S,05833.91571,W,1,04,5.38,30.4,M,13.9,M,,*62
$GPGSA,A,2,17,28,24,15,,,,,,,,,5.47,5.38,1.00*04
$GPGSV,3,1,09,01,01,130,,05,02,335,,06,01,035,,15,52,253,33*74
$GPGSV,3,2,09,17,59,078,09,24,24,235,19,28,35,135,15,30,17,079,06*73
$GPGSV,3,3,09,51,25,296,*4E
$GPGLL,3436.36826,S,05833.91571,W,225917.00,A,A*61
$GPRMC,225918.00,A,3436.36996,S,05833.91103,W,5.640,,130619,,,A*77
$GPVTG,,T,,M,5.640,N,10.446,K,A*13
$GPGGA,225918.00,3436.36996,S,05833.91103,W,1,04,4.63,30.4,M,13.9,M,,*69
$GPGSA,A,3,17,28,24,15,,,,,,,,,8.77,4.63,7.44*02
$GPGSV,3,1,09,01,01,130,,05,$GPRMC,225919.00,A,3436.37244,S,05833.90713,W,5.039,,130619,,,A*7D
$GPVTG,,T,,M,5.039,N,9.332,K,A*27
$GPGGA,225919.00,3436.37244,S,05833.90713,W,1,04,4.64,30.5,M,13.9,M,,*6D
$GPGSA,A,3,17,28,24,15,,,,,,,,,8.78,4.64,7.45*0B
$GPGSV,3,1,09,01,01,130,,05,02,335,,06,01,035,,15,52,253,32*75
$GPGSV,3,2,09,17,59,078,09,24,24,235,15,28,35,135,14,30,17,079,*78
$GPGSV,3,3,09,51,25,296,*4E
$GPGLL,3436.37244,S,05833.90713,W,225919.00,A,A*67
$GPRMC,225920.00,A,3436.37143,S,05833.90365,W,4.187,,130619,,,A*73
$GPVTG,,T,,M,4.187,N,7.754,K,A*28
$GPGGA,225920.00,3436.37143,S,05833.90365,W,1,04,4.64,30.5,M,13.9,M,,*66
$GPGSA,A,3,17,28,24,15,,,,,,,,,8.79,4.64,7.46*09
$GPGSV,3,1,09,01,01,130,,05,0$GPRMC,225921.00,V,,,,,,,130619,,,N*7E
$GPVTG,,,,,,,,,N*30
$GPGGA,225921.00,,,,,0,00,99.99,,,,,,*69
$GPGSA,A,1,,,,,,,,,,,,,99.99,99.99,99.99*30
$GPGSV,3,1,09,01,01,130,,05,02,335,,06,01,035,,15,52,253,32*75
$GPGSV,3,2,09,17,59,078,14,24,24,235,09,28,35,135,18,30,17,079,*75
$GPGSV,3,3,09,51,25,296,*4E
$GPGLL,,,,,225921.00,V,N*45
$GPRMC,225922.00,V,,,,,,,130619,,,N*7D
$GPVTG,,,,,,,,,N*30
$GPGGA,225922.00,,,,,0,00,99.99,,,,,,*6A
$GPGSA,A,1,,,,,,,,,,,,,99.99,99.99,99.99*30
$GPGSV,3,1,09,01,01,130,,05,02,335,,06,01,035,,15,52,253,33*74
$GPGSV,3,2,09,17,59,078,14,24,24,235,09,28,3
$GPRMC,225923.00,A,3436.37732,S,05833.90203,W,4.977,212.85,130619,,,A*64
$GPVTG,212.85,T,,M,4.977,N,9.217,K,A*31
$GPGGA,225923.00,3436.37732,S,05833.90203,W,1,03,2.39,30.5,M,13.9,M,,*6D
$GPGSA,A,2,17,28,15,,,,,,,,,,2.59,2.39,1.00*0C
$GPGSV,3,1,09,01,015,08,28,35,135,19,30,17,079,*75
$GPGSV,3,3,09,51,25,296,*4E
$GPGLL,3436.37732,S,05833.90203,W,225923.00,A,A*6E
$GPRMC,225924.00,A,3436.37917,S,05833.90081,W,5.425,208.19,130619,,,A*67
$GPVTG,208.19,T,,M,5.425,N,10.047,K,A*0B
$GPGGA,225924.00,3436.37917,S,05833.90081,W,1,03,2.39,30.5,M,13.9,M,,*6B
$GPGSA,A,2,17,28,15,,,,,,,,,,2.59,2.39,1.00*0C
$GPGSV,3,1,09,01,0*68
$GPRMC,225925.00,V,,,,,,,130619,,,N*7A
$GPVTG,,,,,,,,,N*30
$GPGGA,225925.00,,,,,0,00,99.99,,,,,,*6D
$GPGSA,A,1,,,,,,,,,,,,,99.99,99.99,99.99*30
$GPGSV,3,1,09,01,01,130,,05,02,335,07,06,01,035,,15,52,253,31*71
$GPGSV,3,2,09,17,59,078,,24,24,235,07,28,3$GPRMC,225926.00,A,3436.38012,S,05833.90104,W,4.696,208.4
$GPVTG,208.44,T,,M,4.696,N,8.696,K,A*3B
$GPGGA,225926.00,3436.38012,S,05833.90104,W,1,03,3.99,30.5,M,13.9,M,,*6D
$GPGSA,A,2,28,24,15,,,,,,,,,,4.11,3.99,1.00*0D
$GPGSV,3,1,09,01,01,130,,05,02,335,08,06,01,035,,15,52,253,31*7E
$GPGSV,3,2,09,17,59,078,15,24,24,235,07,28,35,135,19,30,17,079,*7B
$GPGSV,3,3,09,51,25,296,*4E
$GPGLL,3436.38012,S,05833.90104,W,225926.00,A,A*65
$GPRMC,225927.00,A,3436.37853,S,05833.89997,W,3.679,,130619,,,A*72
$GPVTG,,T,,M,3.679,N,6.813,K,A*24
$GPGGA,225927.00,3436.37853,S,05833.89997,W,1,03,3.99,30.5,M,13.9,M,,*64
$GPGSA,A,2,28,24,15,,,,,,,,,,4.11,3.99,1.00*0D
$GPGSV,3,1,09,01,01,130,,05,02,$GPRMC,225928.00,V,,,,,,,130619,,,N*77
$GPVTG,,,,,,,,,N*30
$GPGGA,225928.00,,,,,0,00,99.99,,,,,,*60
$GPGSA,A,1,,,,,,,,,,,,,99.99,99.99,99.99*30
$GPGSV,3,1,09,01,01,130,,05,02,335,11,06,01,035,,15,52,253,33*74
$GPGSV,3,2,09,17,59,078,15,24,24,235,08,28,35,135,21,30,17,079,*7F
$GPGSV,3,3,09,51,25,296,*4E
$GPGLL,,,,,225928.00,V,N*4C
$GPRMC,225929.00,V,,,,,,,130619,,,N*76
$GPVTG,,,,,,,,,N*30
$GPGGA,225929.00,,,,,0,00,99.99,,,,,,*61
$GPGSA,A,1,,,,,,,,,,,,,99.99,99.99,99.99*30
$GPGSV,3,1,09,01,01,130,,05,02,335,14,06,01,035,,15,52,253,34*76
$GPGSV,3,2,09,17,59,078,14,24,24,235,09,28,4D
$GPRMC,225930.00,A,3436.37977,S,05833.89930,W,3.491,,130619,,,A*7A
$GPVTG,,T,,M,3.491,N,6.465,K,A*2D
$GPGGA,225930.00,3436.37977,S,05833.89930,W,1,04,2.40,30.5,M,13.9,M,,*6A
$GPGSA,A,2,17,28,24,15,,,,,,,,,2.60,2.40,1.00*0E
$GPGSV,3,1,09,01,01,130,,05,035,135,22,30,17,079,*7B
$GPGSV,3,3,09,51,25,296,*4E
$GPGLL,3436.37977,S,05833.89930,W,225930.00,A,A*60
$GPRMC,225931.00,V,,,,,,,130619,,,N*7F
$GPVTG,,,,,,,,,N*30
$GPGGA,225931.00,,,,,0,00,99.99,,,,,,*68
$GPGSA,A,1,,,,,,,,,,,,,99.99,99.99,99.99*30
$GPGSV,3,1,09,01,01,130,,05,02,335,,06,01,035,,15,52,253,34*73
$GPGSV,3,2,09,17,59,078,11,24,24,235,,28,35,$GPRMC,225932.00,V,,,,,,,130619,,,N*7C
$GPVTG,,,,,,,,,N*30
$GPGGA,225932.00,,,,,0,00,99.99,,,,,,*6B
$GPGSA,A,1,,,,,,,,,,,,,99.99,99.99,99.99*30
$GPGSV,3,1,09,01,01,130,22,05,02,335,,06,01,035,,15,52,253,34*73
$GPGSV,3,2,09,17,59,078,09,24,24,235,15,28,35,135,23,30,17,079,*7C
$GPGSV,3,3,09,51,25,296,*4E
$GPGLL,,,,,225932.00,V,N*47
$GPRMC,225933.00,V,,,,,,,130619,,,N*7D
$GPVTG,,,,,,,,,N*30
$GPGGA,225933.00,,,,,0,00,99.99,,,,,,*6A
$GPGSA,A,1,,,,,,,,,,,,,99.99,99.99,99.99*30
$GPGSV,3,1,09,01,01,130,18,05,02,335,,06,01,035,,15,52,253,32*7C
$GPGSV,3,2,09,17,59,078,11,24,24,235,12,2846
$GPRMC,225934.00,V,,,,,,,130619,,,N*7A
$GPVTG,,,,,,,,,N*30
$GPGGA,225934.00,,,,,0,00,99.99,,,,,,*6D
$GPGSA,A,1,,,,,,,,,,,,,99.99,99.99,99.99*30
$GPGSV,3,1,09,01,01,130,17,05,02,335,,06,01,035,,15,52,253,32*73
$GPGSV,3,2,09,17,59,078,13,24,24,235,13,28$GPRMC,225935.00,V,,,,,,,130619,,,N*7B
$GPVTG,,,,,,,,,N*30
$GPGGA,225935.00,,,,,0,00,99.99,,,,,,*6C
$GPGSA,A,1,,,,,,,,,,,,,99.99,99.99,99.99*30
$GPGSV,3,1,09,01,01,131,10,05,02,335,,06,01,035,,15,52,253,31*76
$GPGSV,3,2,09,17,59,078,12,24,24,235,14,28,35,135,20,30,17,079,*74
$GPGSV,3,3,09,51,25,296,*4E
$GPGLL,,,,,225935.00,V,N*40
$GPRMC,225936.00,V,,,,,,,130619,,,N*78
$GPVTG,,,,,,,,,N*30
$GPGGA,225936.00,,,,,0,00,99.99,,,,,,*6F
$GPGSA,A,1,,,,,,,,,,,,,99.99,99.99,99.99*30
$GPGSV,3,1,09,01,01,131,08,05,02,335,,06,01,035,,15,52,253,31*7F
$GPGSV,3,2,09,17,59,078,11,24,24,235,13,28$GPRMC,225937.00,A,3436.38099,S,05833.90011,W,2.942,,1306
$GPVTG,,T,,M,2.942,N,5.449,K,A*22
$GPGGA,225937.00,3436.38099,S,05833.90011,W,1,04,4.74,30.6,M,13.9,M,,*6B
$GPGSA,A,3,17,28,24,15,,,,,,,,,8.96,4.74,7.60*0D
$GPGSV,3,1,09,01,01,131,,05,02,335,,06,01,035,,15,52,253,31*77
$GPGSV,3,2,09,17,59,078,10,24,24,235,12,28,35,135,21,30,17,079,*71
$GPGSV,3,3,09,51,25,296,*4E
$GPGLL,3436.38099,S,05833.90011,W,225937.00,A,A*63
$GPRMC,225938.00,A,3436.38109,S,05833.89817,W,2.741,,130619,,,A*77
$GPVTG,,T,,M,2.741,N,5.077,K,A*26
$GPGGA,225938.00,3436.38109,S,05833.89817,W,1,03,3.97,30.6,M,13.9,M,,*67
$GPGSA,A,2,28,24,15,,,,,,,,,,4.09,3.97,1.00*0A
$GPGSV,3,1,09,01,01,131,,05,02,$GPRMC,225939.00,A,3436.38006,S,05833.89636,W,2.363,,130619,,,A*71
$GPVTG,,T,,M,2.363,N,4.377,K,A*20
$GPGGA,225939.00,3436.38006,S,05833.89636,W,1,03,3.97,30.6,M,13.9,M,,*65
$GPGSA,A,2,28,24,15,,,,,,,,,,4.09,3.97,1.00*0A
$GPGSV,3,1,09,01,01,131,,05,02,335,,06,01,035,,15,52,253,29*7E
$GPGSV,3,2,09,17,59,078,08,24,24,235,11,28,35,135,21,30,17,079,*7B
$GPGSV,3,3,09,51,25,296,*4E
$GPGLL,3436.38006,S,05833.89636,W,225939.00,A,A*60
$GPRMC,225940.00,A,3436.37616,S,05833.89476,W,1.495,,130619,,,A*7C
$GPVTG,,T,,M,1.495,N,2.769,K,A*20
$GPGGA,225940.00,3436.37616,S,05833.89476,W,1,03,3.97,30.6,M,13.9,M,,*65
$GPGSA,A,2,28,24,15,,,,,,,,,,4.09,3.97,1.00*0A
$GPGSV,3,1,09,01,01,131,,05,02,$GPRMC,225941.00,A,3436.36736,S,05833.89053,W,1.393,,130619,,,A*7D
$GPVTG,,T,,M,1.393,N,2.581,K,A*25
$GPGGA,225941.00,3436.36736,S,05833.89053,W,1,03,3.97,30.6,M,13.9,M,,*65
$GPGSA,A,2,28,24,15,,,,,,,,,,4.09,3.97,1.00*0A
$GPGSV,3,1,09,01,01,131,,05,02,335,,06,01,035,,15,52,253,30*76
$GPGSV,3,2,09,17,59,078,09,24,24,235,13,28,35,135,20,30,17,079,*79
$GPGSV,3,3,09,51,25,296,*4E
$GPGLL,3436.36736,S,05833.89053,W,225941.00,A,A*60
$GPRMC,225942.00,A,3436.36296,S,05833.88925,W,2.274,,130619,,,A*73
$GPVTG,,T,,M,2.274,N,4.212,K,A*25
$GPGGA,225942.00,3436.36296,S,05833.88925,W,1,04,4.77,30.6,M,13.9,M,,*6E
$GPGSA,A,3,17,28,24,15,,,,,,,,,9.01,4.77,7.65*04
$GPGSV,3,1,09,01,01,131,,05,0,135,20,30,17,079,*71
$GPGSV,3,3,09,51,25,296,*4E
$GPRMC,225943.00,A,3436.36081,S,05833.88940,W,2.65
$GPVTG,,T,,M,2.738,N,5.070,K,A*2F
$GPGGA,225943.00,3436.36081,S,05833.88940,W,1,04,4.78,30.6,M,13.9,M,,*67
$GPGSA,A,3,17,28,24,15,,,,,,,,,9.02,4.78,7.65*08
$GPGSV,3,1,09,01,01,131,,05,02,335,,06,01,035,,15,52,253,32*74
$GPGSV,3,2,09,17,59,078,11,24,24,235,14,28,35,135,19,30,17,079,*7D
$GPGSV,3,3,09,51,25,296,*4E
$GPGLL,3436.36081,S,05833.88940,W,225943.00,A,A*63
$GPRMC,225944.00,A,3436.35961,S,05833.88970,W,2.864,,130619,,,A*7E
$GPVTG,,T,,M,2.864,N,5.303,K,A*2E
$GPGGA,225944.00,3436.35961,S,05833.88970,W,1,04,4.78,30.6,M,13.9,M,,*67
$GPGSA,A,3,17,28,24,15,,,,,,,,,9.03,4.78,7.66*0A
$GPGSV,3,1,09,01,01,131,,05,0$GPRMC,225945.00,A,3436.35985,S,05833.88934,W,2.080,,130619,,,A*77
$GPVTG,,T,,M,2.080,N,3.852,K,A*25
$GPGGA,225945.00,3436.35985,S,05833.88934,W,1,04,4.79,30.6,M,13.9,M,,*6D
$GPGSA,A,3,17,28,24,15,,,,,,,,,9.05,4.79,7.67*0C
$GPGSV,3,1,09,01,01,131,,05,02,335,07,06,01,035,,15,52,253,31*70
$GPGSV,3,2,09,17,59,078,08,24,24,235,11,28,35,135,19,30,17,079,*70
$GPGSV,3,3,09,51,25,296,*4E
$GPGLL,3436.35985,S,05833.88934,W,225945.00,A,A*68
$GPRMC,225946.00,A,3436.35794,S,05833.88924,W,2.565,,130619,,,A*75
$GPVTG,,T,,M,2.565,N,4.750,K,A*21
$GPGGA,225946.00,3436.35794,S,05833.88924,W,1,04,4.80,30.6,M,13.9,M,,*67
$GPGSA,A,3,17,28,24,15,,,,,,,,,9.06,4.80,7.68*06
$GPGSV,3,1,09,01,01,131,,05,0$GPRMC,225947.00,A,3436.35609,S,05833.88931,W,3.033,,130619,,,A*72
$GPVTG,,T,,M,3.033,N,5.618,K,A*2A
$GPGGA,225947.00,3436.35609,S,05833.88931,W,1,04,4.80,30.6,M,13.9,M,,*67
$GPGSA,A,3,17,28,24,15,,,,,,,,,9.07,4.80,7.69*06
$GPGSV,3,1,09,01,01,131,,05,02,335,07,06,01,035,,15,52,253,29*79
$GPGSV,3,2,09,17,59,078,08,24,24,235,11,28,35,135,16,30,17,079,*7F
$GPGSV,3,3,09,51,25,296,*4E
$GPGLL,3436.35609,S,05833.88931,W,225947.00,A,A*64
$GPRMC,225948.00,A,3436.35445,S,05833.88903,W,3.222,,130619,,,A*74
$GPVTG,,T,,M,3.222,N,5.968,K,A*20
$GPGGA,225948.00,3436.35445,S,05833.88903,W,1,04,4.81,30.6,M,13.9,M,,*62
$GPGSA,A,3,17,28,24,15,,,,,,,,,9.08,4.81,7.70*00
$GPGSV,3,1,09,01,01,131,,05,0$GPRMC,225949.00,A,3436.34986,S,05833.88942,W,4.659,,130619,,,A*7C
$GPVTG,,T,,M,4.659,N,8.628,K,A*29
$GPGGA,225949.00,3436.34986,S,05833.88942,W,1,04,5.25,30.6,M,13.9,M,,*6A
$GPGSA,A,2,17,28,24,15,,,,,,,,,5.35,5.25,1.00*0D
$GPGSV,3,1,09,01,01,131,,05,02,335,07,06,01,035,,15,52,254,29*7E
$GPGSV,3,2,09,17,59,078,08,24,24,235,11,28,35,135,17,30,17,079,*7E
$GPGSV,3,3,09,51,25,296,*4E
$GPGLL,3436.34986,S,05833.88942,W,225949.00,A,A*67
$GPRMC,225950.00,A,3436.34654,S,05833.89075,W,5.660,284.40,130619,,,A*67
$GPVTG,284.40,T,,M,5.660,N,10.482,K,A*0D
$GPGGA,225950.00,3436.34654,S,05833.89075,W,1,04,5.25,30.7,M,13.9,M,,*6F
$GPGSA,A,2,17,28,24,15,,,,,,,,,5.35,5.25,1.00*0D
$GPGSV,3,1,09,0124,235,08,28,35,135,19,30,17,079,*78
$GPGSV,3,3,09,51,25,296,*4E
$GPGLL,3436.34654,S,05833.89075,W,225950.00,A,A*63
$GPRMC,225951.00,A,3436.34282,S,05833.89222,W,6.648,316.01,130619,,,A*6F
$GPVTG,316.01,T,,M,6.648,N,12.313,K,A*06
$GPGGA,225951.00,3436.34282,S,05833.89222,W,1,04,5.25,30.7,M,13.9,M,,*61
$GPGSA,A,2,17,28,24,15,,,,,,,,,5.34,5.25,1.00*0C
$GPGSV,3,1,09,01$GPRMC,225952.00,V,,,,,,,130619,,,N*7A
$GPVTG,,,,,,,,,N*30
$GPGGA,225952.00,,,,,0,00,99.99,,,,,,*6D
$GPGSA,A,1,,,,,,,,,,,,,99.99,99.99,99.99*30
$GPGSV,3,1,09,01,01,131,,05,02,335,10,06,01,035,,15,52,254,32*72
$GPGSV,3,2,09,17,59,079,,24,24,235,08,28,35,135,19,30,17,079,*71
$GPGSV,3,3,09,51,25,296,*4E
$GPGLL,,,,,225952.00,V,N*41
$GPRMC,225953.00,V,,,,,,,130619,,,N*7B
$GPVTG,,,,,,,,,N*30
$GPGGA,225953.00,,,,,0,00,99.99,,,,,,*6C
$GPGSA,A,1,,,,,,,,,,,,,99.99,99.99,99.99*30
$GPGSV,3,1,09,01,01,131,,05,02,335,10,06,01,035,,15,52,254,32*72
$GPGSV,3,2,09,17,59,079,19,24,24,235,08,2840
$GPRMC,225954.00,V,,,,,,,130619,,,N*7C
$GPVTG,,,,,,,,,N*30
$GPGGA,225954.00,,,,,0,00,99.99,,,,,,*6B
$GPGSA,A,1,,,,,,,,,,,,,99.99,99.99,99.99*30
$GPGSV,3,1,09,01,01,131,,05,02,335,10,06,01,035,,15,52,254,32*72
$GPGSV,3,2,09,17,59,079,18,24,24,235,09,28$GPRMC,225955.00,V,,,,,,,130619,,,N*7D
$GPVTG,,,,,,,,,N*30
$GPGGA,225955.00,,,,,0,00,99.99,,,,,,*6A
$GPGSA,A,1,,,,,,,,,,,,,99.99,99.99,99.99*30
$GPGSV,3,1,09,01,01,131,,05,02,335,10,06,01,035,,15,52,254,26*77
$GPGSV,3,2,09,17,59,079,15,24,24,235,09,28,35,135,19,30,17,079,*74
$GPGSV,3,3,09,51,25,296,*4E
$GPGLL,,,,,225955.00,V,N*46
$GPRMC,225956.00,A,3436.33798,S,05833.89255,W,5.049,,130619,,,A*7E
$GPVTG,,T,,M,5.049,N,9.351,K,A*25
$GPGGA,225956.00,3436.33798,S,05833.89255,W,1,04,2.41,30.7,M,13.9,M,,*6A
$GPGSA,A,2,17,28,24,15,,,,,,,,,2.61,2.41,1.00*0E
$GPGSV,3,1,09,01,01,131,,05,02,335,07,06,01,035,,15,52,254,24*73
$GPGSV,3,2,09,17,59,079,17,24,24,235,08,28,35,135,15,30,17,079,*7B
$GPGSV,3,3,09,51,25,296,*4E
$GPGLL,3436.33798,S,05833.89255,W,225956.00,A,A*63
$GPRMC,225957.00,A,3436.33998,S,05833.89479,W,4.698,,130619,,,A*72
$GPVTG,,T,,M,4.698,N,8.700,K,A*2F
$GPGGA,225957.00,3436.33998,S,05833.89479,W,1,04,2.41,30.7,M,13.9,M,,*6D
$GPGSA,A,2,17,28,24,15,,,,,,,,,2.61,2.41,1.00*0E
$GPGSV,3,1,09,01,01,131,,05,0$GPRMC,225958.00,V,,,,,,,130619,,,N*70
$GPVTG,,,,,,,,,N*30
$GPGGA,225958.00,,,,,0,00,99.99,,,,,,*67
$GPGSA,A,1,,,,,,,,,,,,,99.99,99.99,99.99*30
$GPGSV,3,1,09,01,01,131,,05,02,335,07,06,01,035,,15,52,254,18*7C
$GPGSV,3,2,09,17,59,079,11,24,24,234,,28,35,135,08,30,17,079,*78
$GPGSV,3,3,09,51,25,296,*4E
$GPGLL,,,,,225958.00,V,N*4B
$GPRMC,225959.00,V,,,,,,,130619,,,N*71
$GPVTG,,,,,,,,,N*30
$GPGGA,225959.00,,,,,0,00,99.99,,,,,,*66
$GPGSA,A,1,,,,,,,,,,,,,99.99,99.99,99.99*30
$GPGSV,3,1,09,01,01,131,,05,02,335,08,06,01,035,,15,52,254,16*7D
$GPGSV,3,2,09,17,59,079,10,24,24,234,,28,3
$GPRMC,230000.00,V,,,,,,,130619,,,N*70
$GPVTG,,,,,,,,,N*30
$GPGGA,230000.00,,,,,0,00,99.99,,,,,,*67
$GPGSA,A,1,,,,,,,,,,,,,99.99,99.99,99.99*30
$GPGSV,3,1,09,01,01,131,,05,02,335,08,06,01,035,,15,52,254,16*7D
$GPGSV,3,2,09,17,59,079,12,24,24,234,,28,35,135,12,30,17,079,*70
$GPGSV,3,3,09,51,25,296,*4E
$GPGLL,,,,,230000.00,V,N*4B
$GPRMC,230001.00,V,,,,,,,130619,,,N*71
$GPVTG,,,,,,,,,N*30
$GPGGA,230001.00,,,,,0,00,99.99,,,,,,*66
$GPGSA,A,1,,,,,,,,,,,,,99.99,99.99,99.99*30
$GPGSV,3,1,09,01,01,131,,05,02,335,,06,01,035,,15,52,254,21*71
$GPGSV,3,2,09,17,59,079,20,24,24,234,12,28,3$GPRMC,230002.00,V,,,,,,,130619,,,N*72
$GPVTG,,,,,,,,,N*30
$GPGGA,230002.00,,,,,0,00,99.99,,,,,,*65
$GPGSA,A,1,,,,,,,,,,,,,99.99,99.99,99.99*30
$GPGSV,3,1,09,01,01,131,,05,02,335,,06,01,035,,15,52,254,22*72
$GPGSV,3,2,09,17,59,079,17,24,24,234,18,28,34,135,,30,17,079,*7E
$GPGSV,3,3,09,51,25,296,*4E
$GPGLL,,,,,230002.00,V,N*49
$GPRMC,230003.00,V,,,,,,,130619,,,N*73
$GPVTG,,,,,,,,,N*30
$GPGGA,230003.00,,,,,0,00,99.99,,,,,,*64
$GPGSA,A,1,,,,,,,,,,,,,99.99,99.99,99.99*30
$GPGSV,3,1,09,01,01,131,,05,02,335,,06,01,035,,15,52,254,21*71
$GPGSV,3,2,09,17,59,079,13,24,24,234,20,28,34,135,,30,17,079,*71
$GPGSV,3,3,09,51,25,296,*4E
$GPGLL,,,,,230003.00,V,N*48
$GPRMC,230004.00,V,,,,,,,130619,,,N*74
$GPVTG,,,,,,,,,N*30
$GPGGA,230004.00,,,,,0,00,99.99,,,,,,*63
$GPGSA,A,1,,,,,,,,,,,,,99.99,99.99,99.99*30
$GPGSV,3,1,09,01,01,131,,05,02,335,,06,01,035,,15,52,254,21*71
$GPGSV,3,2,09,17,59,079,14,24,24,234,20,28,3$GPRMC,230005.00,A,3436.33015,S,05833.90033,W,4.309,,13
$GPVTG,,T,,M,4.309,N,7.980,K,A*2B
$GPGGA,230005.00,3436.33015,S,05833.90033,W,1,03,5.19,30.7,M,13.9,M,,*64
$GPGSA,A,2,17,24,15,,,,,,,,,,5.29,5.19,1.00*05
$GPGSV,3,1,09,01,01,131,,05,02,335,,06,01,035,,15,52,254,24*74
$GPGSV,3,2,09,17,59,079,18,24,24,234,21,28,34,135,,30,16,078,*7B
$GPGSV,3,3,09,51,25,296,*4E
$GPGLL,3436.33015,S,05833.90033,W,230005.00,A,A*60
$GPRMC,230006.00,A,3436.32565,S,05833.89869,W,4.325,,130619,,,A*7A
$GPVTG,,T,,M,4.325,N,8.010,K,A*2A
$GPGGA,230006.00,3436.32565,S,05833.89869,W,1,03,5.19,30.7,M,13.9,M,,*6B
$GPGSA,A,2,17,24,15,,,,,,,,,,5.29,5.19,1.00*05
$GPGSV,3,1,09,01,01,131,,05,02,$GPRMC,230007.00,A,3436.32252,S,05833.89809,W,4.379,325.96,130619,,,
$GPVTG,325.96,T,,M,4.379,N,8.109,K,A*3F
$GPGGA,230007.00,3436.32252,S,05833.89809,W,1,03,5.19,30.7,M,13.9,M,,*6F
$GPGSA,A,2,17,24,15,,,,,,,,,,5.28,5.19,1.00*04
$GPGSV,3,1,09,01,01,131,,05,02,335,,06,01,035,,15,52,254,27*77
$GPGSV,3,2,09,17,59,079,18,24,24,234,21,28,34,135,,30,16,078,*7B
$GPGSV,3,3,09,51,25,296,*4E
$GPGLL,3436.32252,S,05833.89809,W,230007.00,A,A*6B
$GPRMC,230008.00,A,3436.32143,S,05833.89692,W,3.933,331.17,130619,,,A*6D
$GPVTG,331.17,T,,M,3.933,N,7.284,K,A*39
$GPGGA,230008.00,3436.32143,S,05833.89692,W,1,03,5.18,30.7,M,13.9,M,,*6E
$GPGSA,A,2,17,24,15,,,,,,,,,,5.28,5.18,1.00*05
$GPGSV,3,1,09,01,01$GPRMC,230009.00,A,3436.31860,S,05833.89683,W,4.222,335.56,130619,,,A*6A
$GPVTG,335.56,T,,M,4.222,N,7.820,K,A*30
$GPGGA,230009.00,3436.31860,S,05833.89683,W,1,03,5.18,30.7,M,13.9,M,,*64
$GPGSA,A,2,17,24,15,,,,,,,,,,5.28,5.18,1.00*05
$GPGSV,3,1,09,01,01,131,,05,02,335,,06,01,035,,15,52,254,24*74
$GPGSV,3,2,09,17,59,079,17,24,24,234,20,28,34,135,,30,16,078,*75
$GPGSV,3,3,09,51,25,296,*4E
$GPGLL,3436.31860,S,05833.89683,W,230009.00,A,A*61
$GPRMC,230010.00,A,3436.31628,S,05833.89743,W,4.410,335.93,130619,,,A*63
$GPVTG,335.93,T,,M,4.410,N,8.167,K,A*3B
$GPGGA,230010.00,3436.31628,S,05833.89743,W,1,03,5.18,30.7,M,13.9,M,,*63
$GPGSA,A,2,17,24,15,,,,,,,,,,5.27,5.18,1.00*0A
$GPGSV,3,1,09,01,01$GPRMC,230011.00,A,3436.31541,S,05833.89711,W,4.122,336.80,130619,,,A*6C
$GPVTG,336.80,T,,M,4.122,N,7.634,K,A*30
$GPGGA,230011.00,3436.31541,S,05833.89711,W,1,03,5.17,30.7,M,13.9,M,,*66
$GPGSA,A,2,17,24,15,,,,,,,,,,5.27,5.17,1.00*05
$GPGSV,3,1,09,01,01,131,,05,02,335,,06,01,035,,15,52,254,23*73
$GPGSV,3,2,09,17,59,079,14,24,24,234,20,28,34,135,,30,16,078,*76
$GPGSV,3,3,09,51,25,296,*4E
$GPGLL,3436.31541,S,05833.89711,W,230011.00,A,A*6C
$GPRMC,230012.00,A,3436.31382,S,05833.89672,W,4.162,340.67,130619,,,A*6E
$GPVTG,340.67,T,,M,4.162,N,7.708,K,A*32
$GPGGA,230012.00,3436.31382,S,05833.89672,W,1,03,5.17,30.7,M,13.9,M,,*68
$GPGSA,A,2,17,24,15,,,,,,,,,,5.26,5.17,1.00*04
$GPGSV,3,1,09,01,01$GPRMC,230013.00,A,3436.31173,S,05833.89631,W,4.373,345.50,130619,,,A*67
$GPVTG,345.50,T,,M,4.373,N,8.098,K,A*30
$GPGGA,230013.00,3436.31173,S,05833.89631,W,1,03,5.17,30.7,M,13.9,M,,*62
$GPGSA,A,2,17,24,15,,,,,,,,,,5.26,5.17,1.00*04
$GPGSV,3,1,09,01,01,131,,05,02,335,,06,01,035,,15,52,254,22*72
$GPGSV,3,2,09,17,59,079,16,24,24,234,18,28,34,135,,30,16,078,*7F
$GPGSV,3,3,09,51,25,296,*4E
$GPGLL,3436.31173,S,05833.89631,W,230013.00,A,A*68
$GPRMC,230014.00,A,3436.31123,S,05833.89566,W,4.062,,130619,,,A*7E
$GPVTG,,T,,M,4.062,N,7.522,K,A*21
$GPGGA,230014.00,3436.31123,S,05833.89566,W,1,03,5.16,30.7,M,13.9,M,,*60
$GPGSA,A,2,17,24,15,,,,,,,,,,5.26,5.16,1.00*05
$GPGSV,3,1,09,01,01,131,,05,02,$GPRMC,230015.00,A,3436.30974,S,05833.89587,W,4.090,347.17,130619,,,
$GPVTG,347.17,T,,M,4.090,N,7.575,K,A*36
$GPGGA,230015.00,3436.30974,S,05833.89587,W,1,03,5.16,30.7,M,13.9,M,,*65
$GPGSA,A,2,17,24,15,,,,,,,,,,5.25,5.16,1.00*06
$GPGSV,3,1,09,01,01,131,,05,02,335,,06,01,035,,15,52,254,20*70
$GPGSV,3,2,09,17,59,079,18,24,24,234,19,28,34,135,,30,16,078,*70
$GPGSV,3,3,09,51,25,296,*4E
$GPGLL,3436.30974,S,05833.89587,W,230015.00,A,A*6E
$GPRMC,230016.00,A,3436.30976,S,05833.89559,W,3.581,,130619,,,A*76
$GPVTG,,T,,M,3.581,N,6.632,K,A*2D
$GPGGA,230016.00,3436.30976,S,05833.89559,W,1,03,5.15,30.6,M,13.9,M,,*65
$GPGSA,A,2,17,24,15,,,,,,,,,,5.25,5.15,1.00*05
$GPGSV,3,1,09,01,01,131,,05,02,$GPRMC,230017.00,A,3436.30828,S,05833.89635,W,3.664,,130619,,,A*7C
$GPVTG,,T,,M,3.664,N,6.786,K,A*2B
$GPGGA,230017.00,3436.30828,S,05833.89635,W,1,03,5.15,30.6,M,13.9,M,,*67
$GPGSA,A,2,17,24,15,,,,,,,,,,5.25,5.15,1.00*05
$GPGSV,3,1,09,01,01,131,,05,02,335,,06,01,035,,15,52,254,20*70
$GPGSV,3,2,09,17,59,079,19,24,24,234,20,28,34,135,,30,16,078,*7B
$GPGSV,3,3,09,51,25,296,*4E
$GPGLL,3436.30828,S,05833.89635,W,230017.00,A,A*6E
$GPRMC,230018.00,V,,,,,,,130619,,,N*79
$GPVTG,,,,,,,,,N*30
$GPGGA,230018.00,,,,,0,00,99.99,,,,,,*6E
$GPGSA,A,1,,,,,,,,,,,,,99.99,99.99,99.99*30
$GPGSV,3,1,09,01,01,131,,05,02,335,,06,01,035,,15,52,254,21*71
$GPGSV,3,2,09,17,59,079,18,24,24,234,20,28,3$GPRMC,230019.00,V,,,,,,,130619,,,N*78
$GPVTG,,,,,,,,,N*30
$GPGGA,230019.00,,,,,0,00,99.99,,,,,,*6F
$GPGSA,A,1,,,,,,,,,,,,,99.99,99.99,99.99*30
$GPGSV,3,1,09,01,01,131,,05,02,335,,06,01,035,,15,52,254,21*71
$GPGSV,3,2,09,17,59,079,17,24,24,234,19,28,34,135,12,30,16,078,*7C
$GPGSV,3,3,09,51,25,296,*4E
$GPGLL,,,,,230019.00,V,N*43
$GPRMC,230020.00,V,,,,,,,130619,,,N*72
$GPVTG,,,,,,,,,N*30
$GPGGA,230020.00,,,,,0,00,99.99,,,,,,*65
$GPGSA,A,1,,,,,,,,,,,,,99.99,99.99,99.99*30
$GPGSV,3,1,09,01,01,131,,05,02,335,,06,01,035,,15,52,254,21*71
$GPGSV,3,2,09,17,59,079,18,24,24,234,18,28,34,135,12,30,16,078,*72
$GPGSV,3,3,09,51,25,296,*4E
$GPGLL,,,,,230020.00,V,N*49
$GPRMC,230021.00,V,,,,,,,130619,,,N*73
$GPVTG,,,,,,,,,N*30
$GPGGA,230021.00,,,,,0,00,99.99,,,,,,*64
$GPGSA,A,1,,,,,,,,,,,,,99.99,99.99,99.99*30
$GPGSV,3,1,09,01,01,131,,05,02,335,,06,01,035,,15,52,254,20*70
$GPGSV,3,2,09,17,59,079,18,24,24,234,18,28,3$GPRMC,230022.00,V,,,,,,,130619,,,N*70
$GPVTG,,,,,,,,,N*30
$GPGGA,230022.00,,,,,0,00,99.99,,,,,,*67
$GPGSA,A,1,,,,,,,,,,,,,99.99,99.99,99.99*30
$GPGSV,3,1,09,01,01,131,,05,02,335,,06,01,035,20,15,52,254,20*72
$GPGSV,3,2,09,17,59,079,16,24,24,234,19,28,34,135,,30,16,078,*7E
$GPGSV,3,3,09,51,25,296,*4E
$GPGLL,,,,,230022.00,V,N*4B
